u-blox NEO-6M output when fix was acquired
==========================================

$GPZDA,125347.000,26,12,2015,,*51
$GPGGA,142449.000,3226.0583,N,03454.9160,E,1,03,8.1,82.1,M,18.2,M,,0000*6B
$GPGSA,A,2,02,06,30,,,,,,,,,,8.2,8.1,1.0*36
$GPGSV,3,1,10,02,15,294,31,03,20,146,,05,01,319,,06,26,253,28*70
$GPGSV,3,2,10,07,71,271,22,09,63,013,,16,18,044,,23,43,071,*7C
$GPGSV,3,3,10,28,01,191,,30,40,240,19*73
$GPGLL,3226.0583,N,03454.9160,E,142449.000,A,A*54
$GPZDA,142449.000,26,12,2015,,*59
$GPRMC,142450.000,A,3226.0581,N,03454.9164,E,0.26,,261215,,,A*74
$GPVTG,,T,,M,0.26,N,0.5,K,A*12
$GPGGA,142450.000,3226.0581,N,03454.9164,E,1,04,8.1,82.1,M,18.2,M,,0000*62
$GPGSA,A,2,02,23,06,30,,,,,,,,,8.2,8.1,1.0*37
$GPGSV,3,1,10,02,15,294,31,03,20,146,,05,01,319,,06,26,253,28*70
$GPGSV,3,2,10,07,71,271,21,09,63,013,,16,18,044,,23,43,071,16*78
$GPGSV,3,3,10,28,01,191,,30,40,240,19*73
$GPGLL,3226.0581,N,03454.9164,E,142450.000,A,A*5A
$GPZDA,142450.000,26,12,2015,,*51
$GPRMC,142451.000,A,3226.0580,N,03454.9168,E,0.14,,261215,,,A*79
$GPVTG,,T,,M,0.14,N,0.3,K,A*15
$GPGGA,142451.000,3226.0580,N,03454.9168,E,1,04,8.1,82.1,M,18.2,M,,0000*6E
$GPGSA,A,2,02,23,06,30,,,,,,,,,8.2,8.1,1.0*37
$GPGSV,3,1,10,02,15,294,31,03,20,146,,05,01,319,,06,26,253,28*70
$GPGSV,3,2,10,07,71,271,22,09,63,013,,16,18,044,,23,43,071,15*78
$GPGSV,3,3,10,28,01,191,,30,40,240,19*73
$GPGLL,3226.0580,N,03454.9168,E,142451.000,A,A*56
$GPZDA,142451.000,26,12,2015,,*50
$GPRMC,142452.000,A,3226.0579,N,03454.9175,E,0.87,,261215,,,A*7A
$GPVTG,,T,,M,0.87,N,1.6,K,A*1B
$GPGGA,142452.000,3226.0579,N,03454.9175,E,1,04,8.1,82.1,M,18.2,M,,0000*67
$GPGSA,A,2,02,23,06,30,,,,,,,,,8.2,8.1,1.0*37
$GPGSV,3,1,10,02,15,294,31,03,20,146,,05,01,319,,06,26,253,27*7F
$GPGSV,3,2,10,07,71,271,22,09,63,013,,16,18,044,,23,43,071,15*78
$GPGSV,3,3,10,28,01,191,,30,40,240,19*73
$GPGLL,3226.0579,N,03454.9175,E,142452.000,A,A*5F
$GPZDA,142452.000,26,12,2015,,*53
$GPRMC,142453.000,A,3226.0578,N,03454.9167,E,1.50,,261215,,,A*72
$GPVTG,,T,,M,1.50,N,2.8,K,A*1D
$GPGGA,142453.000,3226.0578,N,03454.9167,E,1,04,8.1,82.1,M,18.2,M,,0000*64
$GPGSA,A,2,02,23,06,30,,,,,,,,,8.2,8.1,1.0*37
$GPGSV,3,1,10,02,15,294,31,03,20,146,,05,01,319,,06,26,253,27*7F
$GPGSV,3,2,10,07,71,271,21,09,63,013,,16,18,044,,23,43,071,11*7F
$GPGSV,3,3,10,28,01,191,,30,40,240,18*72
$GPGLL,3226.0578,N,03454.9167,E,142453.000,A,A*5C
$GPZDA,142453.000,26,12,2015,,*52
$GPRMC,142454.000,A,3226.0578,N,03454.9177,E,0.66,,261215,,,A*70
$GPVTG,,T,,M,0.66,N,1.2,K,A*10
$GPGGA,142454.000,3226.0578,N,03454.9177,E,1,05,8.1,82.1,M,18.2,M,,0000*63
$GPGSA,A,2,02,23,06,09,30,,,,,,,,8.2,8.1,1.0*3E
$GPGSV,3,1,10,02,15,294,31,03,20,146,,05,01,319,,06,26,253,27*7F
$GPGSV,3,2,10,07,71,271,22,09,63,013,13,16,18,044,,23,43,071,10*7F
$GPGSV,3,3,10,28,01,191,,30,40,240,18*72
$GPGLL,3226.0578,N,03454.9177,E,142454.000,A,A*5A
$GPZDA,142454.000,26,12,2015,,*55
$GPRMC,142455.000,A,3226.0505,N,03454.8651,E,1.65,,261215,,,A*7B
$GPVTG,,T,,M,1.65,N,3.1,K,A*13
$GPGGA,142455.000,3226.0505,N,03454.8651,E,1,04,5.0,71.7,M,18.2,M,,0000*6D
$GPGSA,A,3,02,23,06,30,,,,,,,,,11.6,5.0,10.4*32
$GPGSV,3,1,10,02,15,294,31,03,20,146,,05,01,319,,06,26,253,27*7F
$GPGSV,3,2,10,07,71,271,22,09,63,013,,16,18,044,,23,43,071,10*7D
$GPGSV,3,3,10,28,01,191,,30,40,240,18*72
$GPGLL,3226.0505,N,03454.8651,E,142455.000,A,A*53
$GPZDA,142455.000,26,12,2015,,*54
$GPRMC,142456.000,A,3226.0483,N,03454.8515,E,1.19,,261215,,,A*7F
$GPVTG,,T,,M,1.19,N,2.2,K,A*1A
$GPGGA,142456.000,3226.0483,N,03454.8515,E,1,04,5.0,72.4,M,18.2,M,,0000*62
$GPGSA,A,3,02,23,06,30,,,,,,,,,11.6,5.0,10.4*32
$GPGSV,3,1,10,02,15,294,31,03,20,146,,05,01,319,,06,26,253,27*7F
$GPGSV,3,2,10,07,71,271,23,09,63,013,,16,18,044,,23,43,071,10*7C
$GPGSV,3,3,10,28,01,191,,30,40,240,19*73
$GPGLL,3226.0483,N,03454.8515,E,142456.000,A,A*5C
$GPZDA,142456.000,26,12,2015,,*57
$GPRMC,142457.000,A,3226.0481,N,03454.8472,E,1.47,,261215,,,A*77
$GPVTG,,T,,M,1.47,N,2.7,K,A*14
$GPGGA,142457.000,3226.0481,N,03454.8472,E,1,05,5.0,74.8,M,18.2,M,,0000*6A
$GPGSA,A,3,02,23,06,09,30,,,,,,,,11.5,5.0,10.4*38
$GPGSV,3,1,10,02,15,294,31,03,20,146,,05,01,319,,06,26,253,27*7F
$GPGSV,3,2,10,07,71,271,23,09,63,013,13,16,18,044,,23,43,071,07*78
$GPGSV,3,3,10,28,01,191,,30,40,240,20*79
$GPGLL,3226.0481,N,03454.8472,E,142457.000,A,A*5F
$GPZDA,142457.000,26,12,2015,,*56
$GPRMC,142458.000,A,3226.0482,N,03454.8441,E,1.78,,261215,,,A*77
$GPVTG,,T,,M,1.78,N,3.3,K,A*1D
$GPGGA,142458.000,3226.0482,N,03454.8441,E,1,05,5.0,77.7,M,18.2,M,,0000*6A
$GPGSA,A,3,02,23,06,09,30,,,,,,,,11.5,5.0,10.4*38
$GPGSV,3,1,10,02,15,294,30,03,20,146,,05,01,319,,06,26,253,28*71
$GPGSV,3,2,10,07,71,271,23,09,63,013,12,16,18,044,,23,43,071,07*79
$GPGSV,3,3,10,28,01,191,,30,40,240,20*79
$GPGLL,3226.0482,N,03454.8441,E,142458.000,A,A*53
$GPZDA,142458.000,26,12,2015,,*59
$GPRMC,142459.000,A,3226.0484,N,03454.8410,E,2.34,,261215,,,A*7F
$GPVTG,,T,,M,2.34,N,4.3,K,A*11
$GPGGA,142459.000,3226.0484,N,03454.8410,E,1,05,5.0,80.5,M,18.2,M,,0000*63
$GPGSA,A,3,02,23,06,09,30,,,,,,,,11.5,5.0,10.4*38
$GPGSV,3,1,10,02,15,294,30,03,20,146,,05,01,319,,06,26,253,27*7E
$GPGSV,3,2,10,07,71,271,23,09,63,013,10,16,18,044,,23,43,071,07*7B
$GPGSV,3,3,10,28,01,191,,30,40,240,20*79
$GPGLL,3226.0484,N,03454.8410,E,142459.000,A,A*50
$GPZDA,142459.000,26,12,2015,,*58
$GPRMC,142500.000,A,3226.0485,N,03454.8383,E,2.80,,261215,,,A*71
$GPVTG,,T,,M,2.80,N,5.2,K,A*1E
$GPGGA,142500.000,3226.0485,N,03454.8383,E,1,05,5.0,81.6,M,18.2,M,,0000*60
$GPGSA,A,3,02,23,06,09,30,,,,,,,,11.5,5.0,10.3*3F
$GPGSV,3,1,10,02,15,294,31,03,20,146,,05,01,319,,06,26,253,27*7F
$GPGSV,3,2,10,07,71,271,22,09,63,013,10,16,18,044,,23,43,071,07*7A
$GPGSV,3,3,10,28,01,191,,30,40,240,20*79
$GPGLL,3226.0485,N,03454.8383,E,142500.000,A,A*51
$GPZDA,142500.000,26,12,2015,,*55
$GPRMC,142501.000,A,3226.0487,N,03454.8356,E,2.34,,261215,,,A*75
$GPVTG,,T,,M,2.34,N,4.3,K,A*11
$GPGGA,142501.000,3226.0487,N,03454.8356,E,1,04,4.9,84.2,M,18.2,M,,0000*63
$GPGSA,A,3,02,23,06,30,,,,,,,,,11.5,4.9,10.3*3E
$GPGSV,3,1,10,02,15,294,30,03,20,146,,05,01,319,,06,26,253,27*7E
$GPGSV,3,2,10,07,71,271,22,09,63,013,09,16,18,044,,23,43,071,07*72
$GPGSV,3,3,10,28,01,191,,30,40,240,20*79
$GPGLL,3226.0487,N,03454.8356,E,142501.000,A,A*5A
$GPZDA,142501.000,26,12,2015,,*54
$GPRMC,142502.000,A,3226.0485,N,03454.8323,E,2.55,,261215,,,A*71
$GPVTG,,T,,M,2.55,N,4.7,K,A*12
$GPGGA,142502.000,3226.0485,N,03454.8323,E,1,04,4.9,84.7,M,18.2,M,,0000*65
$GPGSA,A,3,02,23,06,30,,,,,,,,,11.5,4.9,10.3*3E
$GPGSV,3,1,10,02,15,294,30,03,20,146,,05,01,319,,06,26,253,27*7E
$GPGSV,3,2,10,07,71,271,22,09,63,013,,16,18,044,,23,43,071,07*7B
$GPGSV,3,3,10,28,01,191,,30,40,240,21*78
$GPGLL,3226.0485,N,03454.8323,E,142502.000,A,A*59
$GPZDA,142502.000,26,12,2015,,*57
$GPRMC,142503.000,A,3226.0482,N,03454.8288,E,4.14,,261215,,,A*74
$GPVTG,,T,,M,4.14,N,7.7,K,A*12
$GPGGA,142503.000,3226.0482,N,03454.8288,E,1,04,4.9,85.3,M,18.2,M,,0000*66
$GPGSA,A,3,02,23,06,30,,,,,,,,,11.4,4.9,10.3*3F
$GPGSV,3,1,10,02,15,294,31,03,20,146,,05,01,319,,06,26,253,27*7F
$GPGSV,3,2,10,07,71,271,23,09,63,013,,16,18,044,,23,43,071,08*75
$GPGSV,3,3,10,28,01,191,,30,40,240,22*7B
$GPGLL,3226.0482,N,03454.8288,E,142503.000,A,A*5F
$GPZDA,142503.000,26,12,2015,,*56
$GPRMC,142504.000,A,3226.0477,N,03454.8250,E,5.51,269.32,261215,,,A*6E
$GPVTG,269.32,T,,M,5.51,N,10.2,K,A*33
$GPGGA,142504.000,3226.0477,N,03454.8250,E,1,04,4.9,85.1,M,18.2,M,,0000*6C
$GPGSA,A,3,02,23,06,30,,,,,,,,,11.4,4.9,10.3*3F
$GPGSV,3,1,10,02,15,294,31,03,20,146,,05,01,319,,06,26,253,26*7E
$GPGSV,3,2,10,07,71,271,22,09,63,013,,16,18,044,,23,43,071,08*74
$GPGSV,3,3,10,28,01,191,,30,40,240,22*7B
$GPGLL,3226.0477,N,03454.8250,E,142504.000,A,A*57
$GPZDA,142504.000,26,12,2015,,*51
$GPRMC,142505.000,A,3226.0470,N,03454.8211,E,6.14,264.95,261215,,,A*6F
$GPVTG,264.95,T,,M,6.14,N,11.4,K,A*36
$GPGGA,142505.000,3226.0470,N,03454.8211,E,1,04,4.9,87.0,M,18.2,M,,0000*6C
$GPGSA,A,3,02,23,06,30,,,,,,,,,11.4,4.9,10.3*3F
$GPGSV,3,1,10,02,15,294,31,03,20,146,,05,01,319,,06,26,253,26*7E
$GPGSV,3,2,10,07,71,271,22,09,63,013,,16,18,044,,23,43,071,08*74
$GPGSV,3,3,10,28,01,191,,30,40,240,21*78
$GPGLL,3226.0470,N,03454.8211,E,142505.000,A,A*54
$GPZDA,142505.000,26,12,2015,,*50
$GPRMC,142506.000,A,3226.0468,N,03454.8173,E,6.12,265.88,261215,,,A*69
$GPVTG,265.88,T,,M,6.12,N,11.3,K,A*3A
$GPGGA,142506.000,3226.0468,N,03454.8173,E,1,04,4.9,87.0,M,18.2,M,,0000*61
$GPGSA,A,3,02,23,06,30,,,,,,,,,11.4,4.9,10.2*3E
$GPGSV,3,1,10,02,15,294,31,03,20,146,,05,01,319,,06,26,253,27*7F
$GPGSV,3,2,10,07,71,271,21,09,63,013,,16,18,044,,23,43,071,08*77
$GPGSV,3,3,10,28,01,191,,30,40,240,18*72
$GPGLL,3226.0468,N,03454.8173,E,142506.000,A,A*59
$GPZDA,142506.000,26,12,2015,,*53
$GPRMC,142507.000,A,3226.0466,N,03454.8128,E,7.34,266.34,261215,,,A*69
$GPVTG,266.34,T,,M,7.34,N,13.6,K,A*3C
$GPGGA,142507.000,3226.0466,N,03454.8128,E,1,04,4.9,88.0,M,18.2,M,,0000*6F
$GPGSA,A,3,02,23,06,30,,,,,,,,,11.4,4.9,10.2*3E
$GPGSV,3,1,10,02,15,294,30,03,20,146,,05,01,319,,06,26,253,27*7E
$GPGSV,3,2,10,07,71,271,22,09,63,013,,16,18,044,,23,43,071,08*74
$GPGSV,3,3,10,28,01,191,,30,40,240,14*7E
$GPGLL,3226.0466,N,03454.8128,E,142507.000,A,A*58
$GPZDA,142507.000,26,12,2015,,*52
$GPRMC,142508.000,A,3226.0468,N,03454.8090,E,8.08,267.22,261215,,,A*6C
$GPVTG,267.22,T,,M,8.08,N,15.0,K,A*3A
$GPGGA,142508.000,3226.0468,N,03454.8090,E,1,04,4.9,89.5,M,18.2,M,,0000*68
$GPGSA,A,3,02,23,06,30,,,,,,,,,11.3,4.9,10.2*39
$GPGSV,3,1,10,02,15,294,30,03,20,146,,05,01,319,,06,26,253,26*7F
$GPGSV,3,2,10,07,71,271,23,09,63,013,,16,18,044,,23,43,071,08*75
$GPGSV,3,3,10,28,01,191,,30,40,240,16*7C
$GPGLL,3226.0468,N,03454.8090,E,142508.000,A,A*5B
$GPZDA,142508.000,26,12,2015,,*5D
$GPRMC,142509.000,A,3226.0469,N,03454.8054,E,8.35,268.53,261215,,,A*63
$GPVTG,268.53,T,,M,8.35,N,15.5,K,A*38
$GPGGA,142509.000,3226.0469,N,03454.8054,E,1,04,4.9,91.8,M,18.2,M,,0000*64
